
[{"Name": "IGA",
  "Address": "33 Gilbert St, Adelaide SA 5000, Australia",
  "lat": -34.9345462,
  "lng": 138.59924569999998,
  "Popularity": 33},
 {"Name": "Hindley Street Express Supermarket",
  "Address": "55 Hindley St, Adelaide SA 5000, Australia",
  "lat": -34.9233261,
  "lng": 138.59734369999998,
  "Popularity": 90},
 {"Name": "FoodWorks",
  "Address": "2-5/91 Torrens Rd, Brompton SA 5007, Australia",
  "lat": -34.8945134,
  "lng": 138.5794938,
  "Popularity": 31},
 {"Name": "IGA",
  "Address": "2 Allen Pl, Adelaide SA 5000, Australia",
  "lat": -34.929959499999995,
  "lng": 138.61293999999998,
  "Popularity": 82},
 {"Name": "Time Supermarket",
  "Address": "118 Grote St, Adelaide SA 5000, Australia",
  "lat": -34.9286234,
  "lng": 138.5947737,
  "Popularity": 79},
 {"Name": "Adelaide (Hutt St) IGA",
  "Address": "232 Hutt St, Adelaide SA 5000, Australia",
  "lat": -34.9333208,
  "lng": 138.6126916,
  "Popularity": 5},
 {"Name": "IGA",
  "Address": "291 Unley Rd, Malvern SA 5061, Australia",
  "lat": -34.9593191,
  "lng": 138.6086588,
  "Popularity": 1},
 {"Name": "Homes Supermarket",
  "Address": "110 Gouger St, Adelaide SA 5000, Australia",
  "lat": -34.9299623,
  "lng": 138.5952432,
  "Popularity": 50},
 {"Name": "IGA Adelaide City East",
  "Address": "116 Hutt St, Adelaide SA 5000, Australia",
  "lat": -34.9291784,
  "lng": 138.6125404,
  "Popularity": 95},
 {"Name": "Dulwich Grocer",
  "Address": "7 Stuart Rd, Dulwich SA 5065, Australia",
  "lat": -34.935576399999995,
  "lng": 138.6314287,
  "Popularity": 48},
 {"Name": "Foodworks North Adelaide",
  "Address": "113 O'Connell St, North Adelaide SA 5006, Australia",
  "lat": -34.905571099999996,
  "lng": 138.59530189999998,
  "Popularity": 88},
 {"Name": "Coles",
  "Address": "Shopping Centre, 204 Unley Rd, Unley SA 5061, Australia",
  "lat": -34.9506918,
  "lng": 138.6060929,
  "Popularity": 89},
 {"Name": "Bowden IGA",
  "Address": "5 Third St, Bowden SA 5007, Australia",
  "lat": -34.906192,
  "lng": 138.5786946,
  "Popularity": 52},
 {"Name": "North Adelaide Foodland",
  "Address": "71-79 O'Connell St, North Adelaide SA 5006, Australia",
  "lat": -34.9067838,
  "lng": 138.59550249999998,
  "Popularity": 36},
 {"Name": "Foodland",
  "Address": "161/169 The Parade, Norwood SA 5067, Australia",
  "lat": -34.9206442,
  "lng": 138.63573119999998,
  "Popularity": 46},
 {"Name": "IGA Goodwood",
  "Address": "119 Goodwood Rd, Goodwood SA 5063, Australia",
  "lat": -34.951682,
  "lng": 138.59000029999999,
  "Popularity": 74},
 {"Name": "Frewville Foodland",
  "Address": "177 Glen Osmond Rd, Frewville SA 5063, Australia",
  "lat": -34.9464746,
  "lng": 138.6265934,
  "Popularity": 82},
 {"Name": "Seaton Supermarket",
  "Address": "224 Tapleys Hill Rd, Seaton SA 5023, Australia",
  "lat": -34.883404,
  "lng": 138.5127948,
  "Popularity": 36},
 {"Name": "Coles Rundle Mall",
  "Address": "Rundle Place, 77-91 Rundle Mall, Adelaide SA 5000, Australia",
  "lat": -34.9234311,
  "lng": 138.6027306,
  "Popularity": 46},
 {"Name": "Coles",
  "Address": "Prospect Rd, Prospect SA 5082, Australia",
  "lat": -34.8850972,
  "lng": 138.5938856,
  "Popularity": 101}]